City_ID,City,Lat,Lng,Max Temp,Humidity,Cloudiness,Wind Speed,Country,Date
0,waitangi,-43.9535,-176.5597,12.12,92,82,1.34,NZ,1738698442
1,wailua homesteads,22.0669,-159.378,21.44,77,20,4.63,US,1738698443
2,grytviken,-54.2811,-36.5092,5.2,68,25,10.81,GS,1738698444
3,blackmans bay,-43.0167,147.3167,12.07,75,40,2.36,AU,1738698446
4,iqaluit,63.7506,-68.5145,-26.15,64,20,4.63,CA,1738698448
5,invercargill,-46.4,168.35,11.68,95,89,0.89,NZ,1738698449
6,bethel,41.3712,-73.414,4.97,45,44,4.92,US,1738698451
7,vorkuta,67.5,64.0,-23.61,99,80,0.92,RU,1738698452
8,funafuti,-8.5243,179.1942,29.0,74,40,5.14,TV,1738698453
9,severo-yeniseyskiy,60.3725,93.0408,-27.02,100,48,1.06,RU,1738698454
10,kailua-kona,19.6406,-155.9956,26.27,58,0,1.54,US,1738698455
11,meadow lakes,61.6247,-149.6011,-12.18,89,0,0.0,US,1738698456
12,callaway,30.153,-85.5699,25.02,69,40,3.58,US,1738698270
13,yelizovo,53.1873,158.3805,-7.92,73,20,2.0,RU,1738698459
14,west island,-12.1568,96.8225,27.99,94,20,5.14,CC,1738698460
15,prince rupert,54.3161,-130.3201,-0.95,25,0,9.26,CA,1738698461
16,kurumkan,54.3,110.3,-26.8,88,24,2.54,RU,1738698462
17,egersund,58.4513,5.9997,6.02,94,100,7.09,NO,1738698463
18,bethanie,-26.4833,17.15,28.13,35,96,4.21,NA,1738698466
19,yellowknife,62.456,-114.3525,-13.1,96,100,4.12,CA,1738698444
20,puerto armuelles,8.2833,-82.8667,26.72,56,86,0.45,PA,1738698468
21,whitehorse,60.7161,-135.0538,-16.22,81,100,1.54,CA,1738698218
22,port lincoln,-34.7333,135.8667,17.27,72,33,7.69,AU,1738698400
23,cabo san lucas,22.8909,-109.9124,27.17,17,0,4.12,MX,1738698456
24,marsh harbour,26.5412,-77.0636,23.21,71,0,3.22,BS,1738698473
25,kidal,18.4411,1.4078,25.0,10,100,5.23,ML,1738698474
26,isafjordur,66.0755,-23.124,-3.56,62,100,12.19,IS,1738698475
27,uturoa,-16.7333,-151.4333,27.92,71,22,4.22,PF,1738698476
28,adamstown,-25.066,-130.1015,25.23,76,7,6.09,PN,1738698478
29,papatowai,-46.5619,169.4708,14.62,60,30,0.55,NZ,1738698479
30,ilulissat,69.2167,-51.1,-19.99,71,75,6.17,GL,1738698480
31,lebu,-37.6167,-73.65,18.56,62,0,3.28,CL,1738698481
32,jamestown,42.097,-79.2353,-3.2,82,100,6.69,US,1738698428
33,verkhnevilyuysk,63.4453,120.3167,-29.97,95,100,3.77,RU,1738698483
34,comodoro rivadavia,-45.8667,-67.5,18.92,42,0,6.69,AR,1738698188
35,kingston,17.997,-76.7936,30.09,62,20,2.06,JM,1738698457
36,poyang,28.9924,116.6675,6.93,53,0,2.32,CN,1738698487
37,xiongzhou,25.1167,114.3,5.88,66,0,0.62,CN,1738698488
38,bakanas,44.8081,76.2772,-9.59,90,12,1.99,KZ,1738698489
39,st ives,50.2086,-5.4875,8.0,74,2,8.55,GB,1738698490
40,paracatu,-17.2222,-46.8747,26.12,77,96,1.93,BR,1738698480
41,bathurst,-33.4166,149.5806,18.07,84,0,0.45,AU,1738698493
42,nuuk,64.1835,-51.7216,-11.66,61,40,5.66,GL,1738698494
43,sitka,57.0531,-135.33,1.03,56,2,2.47,US,1738698365
44,sakiet sidi youssef,36.2229,8.3555,6.33,90,100,1.64,TN,1738698496
45,punta arenas,-53.15,-70.9167,12.06,62,75,13.38,CL,1738698430
46,port-aux-francais,-49.35,70.2167,5.89,99,100,8.07,TF,1738698499
47,myrtle beach,33.6891,-78.8867,26.03,60,0,0.45,US,1738698099
48,papao,-17.75,-149.55,29.82,70,3,3.36,PF,1738698502
49,albany,42.6001,-73.9662,0.23,52,52,4.47,US,1738698296
50,ribeira grande,38.5167,-28.7,15.99,94,75,8.75,PT,1738698504
51,agua preta,-8.7075,-35.5306,27.08,67,95,5.23,BR,1738698506
52,vuktyl,63.8567,57.3094,-11.94,91,100,2.62,RU,1738698508
53,enewetak,11.3474,162.3373,26.52,68,76,8.27,MH,1738698509
54,pandan,14.0453,124.1694,23.95,90,91,3.35,PH,1738698510
55,atafu village,-8.5421,-172.5159,28.42,68,91,7.87,TK,1738698512
56,lihue,21.9789,-159.3672,21.77,68,20,4.63,US,1738698513
57,edmundston,47.3737,-68.3251,-8.26,54,75,9.26,CA,1738698460
58,olonkinbyen,70.9221,-8.7187,-1.43,81,99,9.67,SJ,1738698515
59,illizi,26.4833,8.4667,16.94,25,100,3.59,DZ,1738698516
60,edinburgh of the seven seas,-37.0676,-12.3116,15.49,71,5,6.65,SH,1738698518
61,port saint john's,-31.6229,29.5448,26.15,89,16,4.78,ZA,1738698519
62,kerikeri,-35.2268,173.9474,17.73,89,9,0.45,NZ,1738698520
63,pierre,44.3683,-100.351,-12.49,61,100,7.2,US,1738698273
64,bilibino,68.0546,166.4372,-45.48,100,69,1.47,RU,1738698522
65,belyy yar,53.6039,91.3903,-21.06,92,40,0.0,RU,1738698523
66,egilsstadir,65.2653,-14.3948,-1.05,64,75,3.6,IS,1738698525
67,san patricio,28.017,-97.5169,27.97,70,77,6.37,US,1738698526
68,ceeldheer,3.8488,47.1806,23.94,83,20,9.05,SO,1738698527
69,puerto colombia,10.9878,-74.9547,31.05,70,4,9.43,CO,1738698528
70,hermanus,-34.4187,19.2345,17.11,82,21,1.89,ZA,1738698529
71,margaret river,-33.95,115.0667,14.95,81,0,3.54,AU,1738698530
72,ushuaia,-54.8,-68.3,12.81,50,40,4.12,AR,1738698329
73,nhamunda,-2.1861,-56.7131,25.11,94,99,0.7,BR,1738698533
74,longyearbyen,78.2186,15.6401,-3.09,74,75,11.32,SJ,1738698534
75,oistins,13.0667,-59.5333,28.05,65,20,7.72,BB,1738698535
76,geraldton,-28.7667,114.6,21.23,88,3,1.03,AU,1738698536
77,talnakh,69.4865,88.3972,-21.92,94,100,2.83,RU,1738698538
78,mariehamn,60.0973,19.9348,1.92,93,100,6.69,AX,1738698539
79,bridlington,54.0831,-0.1919,7.96,70,50,2.68,GB,1738698540
80,kavalerovo,44.2661,135.0572,-18.21,79,100,7.02,RU,1738698541
81,badger,64.8,-147.5333,-14.07,82,100,0.0,US,1738698542
82,natal,-5.795,-35.2094,28.36,74,40,7.2,BR,1738698125
83,bonthe,7.5264,-12.505,25.67,65,99,3.7,SL,1738698545
84,hirara,24.8,125.2833,12.92,58,100,6.17,JP,1738698546
85,remire-montjoly,4.9167,-52.2667,29.02,79,75,4.63,GF,1738698547
86,vila franca do campo,37.7167,-25.4333,18.27,99,100,3.05,PT,1738698548
87,wuhai,39.6647,106.8122,-10.85,47,1,2.25,CN,1738698549
88,bredasdorp,-34.5322,20.0403,18.97,78,0,1.81,ZA,1738698550
89,kill devil hills,36.0307,-75.676,21.01,59,0,4.12,US,1738698286
90,mangrol,21.1167,70.1167,18.2,69,0,5.98,IN,1738698553
91,chililabombwe,-12.3648,27.8229,17.28,97,91,0.81,ZM,1738698554
92,howrah,22.5892,88.3103,20.0,73,100,1.54,IN,1738698317
93,touros,-5.1989,-35.4608,27.87,74,100,6.24,BR,1738698556
94,puerto natales,-51.7236,-72.4875,14.25,41,75,11.32,CL,1738698558
95,san jose del guaviare,2.5729,-72.6459,36.06,28,71,3.62,CO,1738698559
96,namdrik,5.5994,168.1028,26.93,86,100,9.03,MH,1738698560
97,grand baie,-20.0182,57.5802,28.03,89,10,0.89,MU,1738698561
98,port elizabeth,-33.918,25.5701,22.4,98,100,2.24,ZA,1738698562
99,sangueya,10.7,-14.3667,23.71,44,85,1.72,GN,1738698563
100,izhmorskiy,56.194,86.6414,-21.92,100,100,0.92,RU,1738698564
101,kittila,67.6647,24.8936,-16.92,85,75,1.03,FI,1738698566
102,bengkulu,-3.8004,102.2655,24.23,86,100,1.25,ID,1738698567
103,ouidah,6.3631,2.0851,28.48,75,63,4.57,BJ,1738698568
104,arraial do cabo,-22.9661,-42.0278,31.98,54,0,7.72,BR,1738698569
105,haiku-pauwela,20.9219,-156.3051,22.9,79,15,4.92,US,1738698570
106,campo largo,-25.4586,-49.5283,19.68,99,100,1.75,BR,1738698356
107,carutapera,-1.195,-46.02,24.83,94,100,2.38,BR,1738698573
108,hadibu,12.65,54.0333,21.43,68,7,5.81,YE,1738698574
109,rabigh,22.7986,39.0349,25.08,62,72,0.7,SA,1738698575
110,dampit,-8.2116,112.7493,23.21,69,100,1.58,ID,1738698576
111,saurimo,-9.6608,20.3916,18.81,94,100,1.69,AO,1738698578
112,constantia,44.1833,28.65,0.39,64,5,4.6,RO,1738698579
113,anloga,5.7947,0.8973,28.66,77,79,5.6,GH,1738698580
114,cockburn town,21.4612,-71.1419,24.9,71,24,7.03,TC,1738698581
115,tianshui,34.5439,105.6897,-3.48,47,100,3.09,CN,1738698582
116,yaren,-0.5472,166.916,26.92,83,97,6.47,NR,1738698583
117,bure,10.7,37.0667,19.09,33,33,2.93,ET,1738698585
118,sheridan,44.8333,-106.9173,-13.88,82,75,3.09,US,1738698481
119,kuta,-8.7233,115.1723,27.97,94,40,1.54,ID,1738698588
120,colares,38.7992,-9.4469,12.55,78,20,3.6,PT,1738698589
121,lompoc,34.6391,-120.4579,18.23,67,100,7.2,US,1738698591
122,kasongo-lunda,-6.4667,16.8167,22.68,79,100,0.66,CD,1738698593
123,nizhniy kuranakh,58.8353,125.4869,-34.39,99,86,0.82,RU,1738698594
124,magadan,59.5667,150.8,-26.25,80,4,2.62,RU,1738698595
125,pidhorodne,48.5753,35.1068,-1.8,81,69,4.11,UA,1738698596
126,carnarvon,-24.8667,113.6333,26.77,79,84,7.31,AU,1738698597
127,codrington,-38.2667,141.9667,14.47,63,40,7.1,AU,1738698598
128,dwarka,22.2394,68.9678,20.14,53,0,4.53,IN,1738698600
129,bandarbeyla,9.4942,50.8122,22.66,68,25,9.29,SO,1738698601
130,surgut,61.25,73.4167,-10.9,100,100,3.0,RU,1738698602
131,spring creek,40.7266,-115.5859,14.11,37,60,6.71,US,1738698603
132,teruel,40.6667,-0.6667,2.65,70,0,1.97,ES,1738698604
133,antalaha,-14.9003,50.2788,24.45,91,100,1.43,MG,1738698606
134,burang,30.25,81.1667,-8.19,93,98,3.45,CN,1738698607
135,princeville,45.7668,-61.2985,-3.03,78,75,6.17,CA,1738698608
136,saipan,15.1355,145.701,27.39,74,0,3.6,MP,1738698598
137,debark',13.1561,37.8981,14.81,25,1,0.29,ET,1738698610
138,bubaque,11.2833,-15.8333,24.69,67,100,7.71,GW,1738698611
139,ust-nera,64.5667,143.2,-41.48,94,44,0.97,RU,1738698613
140,derbent,42.0678,48.2899,7.01,82,96,9.3,RU,1738698614
141,mazagao,-0.115,-51.2894,27.71,68,79,1.63,BR,1738698615
142,romankivtsi,48.4847,27.2138,-1.6,83,100,3.0,UA,1738698616
143,fortaleza,-3.7227,-38.5247,30.07,66,20,6.69,BR,1738698617
144,kudahuvadhoo,2.6708,72.8944,27.64,68,31,5.48,MV,1738698618
145,katsina,12.9894,7.6006,23.87,9,0,4.38,NG,1738698620
146,hawaiian paradise park,19.5933,-154.9731,24.94,73,20,2.06,US,1738698622
147,luderitz,-26.6481,15.1594,19.2,73,76,7.56,NA,1738698623
148,fort st. john,56.2499,-120.8529,-32.06,75,40,2.06,CA,1738698624
149,tiksi,71.6872,128.8694,-29.17,94,100,2.49,RU,1738698626
150,avarua,-21.2078,-159.775,29.03,84,94,6.17,CK,1738698627
151,quellon,-43.1167,-73.6167,16.03,64,47,3.14,CL,1738698465
152,amga,60.8953,131.9608,-42.84,100,74,0.85,RU,1738698629
153,nazret,8.55,39.2667,16.13,43,7,3.5,ET,1738698630
154,kijang,35.2442,129.2139,-7.15,51,0,4.54,KR,1738698631
155,port mathurin,-19.6833,63.4167,27.21,79,5,3.73,MU,1738698633
156,stanley,54.868,-1.6985,6.01,82,75,5.66,GB,1738698515
157,afaahiti,-17.75,-149.2833,26.19,77,57,4.68,PF,1738698635
158,reggane,26.7158,0.1714,16.99,16,0,4.18,DZ,1738698636
159,raton,36.9034,-104.4391,16.34,19,0,4.12,US,1738698637
160,udachny,66.4167,112.4,-40.93,100,92,1.9,RU,1738698638
161,college,64.8569,-147.8028,-14.03,72,100,0.0,US,1738698640
162,port moresby,-9.4431,147.1797,24.68,88,75,2.57,PG,1738698641
163,banda aceh,5.5577,95.3222,24.15,83,100,4.89,ID,1738698643
164,pozo del molle,-32.0186,-62.9198,40.79,17,0,2.74,AR,1738698644
165,shizilu,35.1711,118.8289,-2.46,33,99,1.78,CN,1738698645
166,acarau,-2.8856,-40.12,27.87,76,95,5.95,BR,1738698647
167,keren,15.7778,38.4581,17.9,76,0,4.1,ER,1738698649
168,sechura,-5.5569,-80.8222,28.33,57,24,7.31,PE,1738698650
169,mount isa,-20.7333,139.5,23.87,88,100,2.06,AU,1738698651
170,northam,51.0333,-4.2167,8.22,76,0,2.68,GB,1738698652
171,nouadhibou,20.931,-17.0347,18.13,77,0,10.36,MR,1738698653
172,tazacorte,28.629,-17.9293,18.54,72,75,5.66,ES,1738698403
173,carahue,-38.7,-73.1667,25.16,29,100,4.52,CL,1738698656
174,bazarnyy karabulak,52.2683,46.4144,-4.37,96,100,6.88,RU,1738698657
175,dalandzadgad,43.5708,104.425,-17.14,60,0,4.09,MN,1738698658
176,san luis de la loma,17.2706,-100.8939,29.28,55,0,3.16,MX,1738698659
177,auki,-8.7676,160.7034,25.28,88,100,1.5,SB,1738698660
178,yanaul,56.2719,54.9309,-6.57,93,100,2.66,RU,1738698661
179,kekri,25.9667,75.15,14.5,33,0,4.04,IN,1738698662
180,vadso,70.0744,29.7487,-14.91,85,75,8.23,NO,1738698664
181,damanhur,31.0392,30.4691,11.02,91,0,2.22,EG,1738698665
182,mulayjah,27.271,48.4242,15.11,26,1,4.25,SA,1738698666
183,saudarkrokur,65.7461,-19.6394,-4.4,81,98,5.83,IS,1738698667
184,santo antonio,-6.3106,-35.4789,27.0,72,100,5.44,BR,1738698668
185,thompson,55.7435,-97.8558,-21.91,64,0,7.2,CA,1738698670
186,tocopilla,-22.092,-70.1979,22.75,75,27,2.52,CL,1738697981
187,pisco,-13.7,-76.2167,28.03,61,0,5.66,PE,1738698672
188,namibe,-15.1961,12.1522,23.9,82,100,2.86,AO,1738698673
189,kindu,-2.95,25.95,21.51,98,100,2.04,CD,1738698675
190,kuanda,56.3161,116.0806,-27.48,96,100,0.44,RU,1738698676
191,hobyo,5.3505,48.5268,24.16,83,7,9.69,SO,1738698677
192,alice springs,-23.7,133.8833,24.75,61,99,2.57,AU,1738698450
193,flying fish cove,-10.4217,105.6791,26.82,89,100,8.75,CX,1738698595
194,tralee,52.2704,-9.7026,5.89,77,33,5.87,IE,1738698680
195,tres arroyos,-38.3739,-60.2798,26.87,31,3,7.62,AR,1738698561
196,vilyuchinsk,52.9306,158.4028,-7.85,93,86,1.05,RU,1738698683
197,sai buri,6.7013,101.6168,24.09,79,100,3.76,TH,1738698684
198,isangel,-19.55,169.2667,26.37,85,94,6.68,VU,1738698685
199,imbituba,-28.24,-48.6703,26.97,77,69,4.49,BR,1738698687
200,la ronge,55.1001,-105.2842,-22.86,64,0,2.57,CA,1738698688
201,ladario,-19.0047,-57.6017,33.05,58,40,2.57,BR,1738698689
202,malango,-2.9627,119.9001,18.55,94,100,1.4,ID,1738698690
203,north battleford,52.7834,-108.2847,-22.95,77,100,2.06,CA,1738698691
204,whakatane,-37.9585,176.9854,20.28,90,96,1.61,NZ,1738698692
205,diosig,47.3,22.0,-0.58,75,0,0.21,RO,1738698695
206,nemuro,43.3236,145.575,-0.98,76,43,9.48,JP,1738698696
207,puerto baquerizo moreno,-0.9,-89.6,30.55,62,20,7.2,EC,1738698697
208,barao de cocais,-19.9458,-43.4872,24.13,76,100,1.95,BR,1738698662
209,aur,8.1499,171.1687,26.85,84,53,11.36,MH,1738698699
210,nova sintra,14.8667,-24.7167,21.96,73,100,10.02,CV,1738698701
211,rongelap,11.1635,166.8941,26.51,79,100,8.74,MH,1738698702
212,woodward,36.4337,-99.3904,-2.49,93,100,2.06,US,1738698703
213,hithadhoo,-0.6,73.0833,27.66,70,4,4.11,MV,1738698704
214,daru,-9.0763,143.2092,25.54,91,100,3.65,PG,1738698705
215,barabai,-2.5833,115.3833,23.12,97,91,0.99,ID,1738698706
216,meulaboh,4.1363,96.1285,24.3,92,100,1.79,ID,1738698708
217,gympie,-26.1898,152.665,21.51,94,100,1.36,AU,1738698709
218,arenapolis,-14.4503,-56.8461,27.05,82,100,1.01,BR,1738698710
219,namsos,64.4662,11.4957,-1.05,86,75,5.66,NO,1738698711
220,qaqortoq,60.7167,-46.0333,-18.67,65,86,4.84,GL,1738698712
221,kristiansund,63.1115,7.732,6.74,81,75,2.57,NO,1738698713
222,muli,2.9167,73.5667,27.69,68,2,5.31,MV,1738698715
223,archangelos,36.2149,28.1149,13.99,86,9,4.59,GR,1738698716
224,nema,57.5067,50.5011,-2.36,95,100,2.84,RU,1738698717
225,okha,53.5739,142.9478,-5.87,77,100,8.35,RU,1738698718
226,machico,32.7,-16.7667,17.78,67,40,4.12,PT,1738698719
227,fort bragg,35.139,-79.006,24.91,36,0,4.63,US,1738698720
228,qarazhal,48.0078,70.7903,-9.66,79,64,4.55,KZ,1738698722
229,vorgashor,67.5833,63.95,-22.87,99,79,1.4,RU,1738698723
230,gadzhiyevo,69.2551,33.3362,-20.1,99,100,6.16,RU,1738698724
231,colonia,50.9333,6.95,-0.02,85,0,3.09,DE,1738698668
232,trairi,-3.2778,-39.2689,28.08,73,97,4.92,BR,1738698625
233,kodiak,57.79,-152.4072,-6.27,100,0,0.0,US,1738698727
234,texistepec,17.8833,-94.7833,28.37,58,1,4.53,MX,1738698729
235,syktyvkar,61.6764,50.8099,-4.15,100,75,2.0,RU,1738698730
236,anadyr,64.75,177.4833,-29.72,74,0,10.0,RU,1738698732
237,hamilton,39.1834,-84.5333,7.71,61,75,4.12,US,1738698542
238,markaz-e hukumat-e darweshan,31.1323,64.1934,8.7,29,0,1.29,AF,1738698735
239,naze,28.3667,129.4833,8.51,55,100,11.26,JP,1738698736
240,okhotsk,59.3833,143.3,-28.23,88,44,3.91,RU,1738698737
241,labrador city,52.9463,-66.9114,-16.05,66,75,8.75,CA,1738698738
242,weno,7.4515,151.8468,24.97,88,100,3.09,FM,1738698740
243,dodola,6.9833,39.1833,11.85,44,7,1.78,ET,1738698741
244,richards bay,-28.783,32.0377,26.51,79,99,6.03,ZA,1738698742
245,amursk,50.2261,136.8994,-16.4,88,100,10.22,RU,1738698743
246,campestre,-21.7111,-46.2464,22.62,85,100,0.72,BR,1738698744
247,chonchi,-42.6128,-73.8092,19.72,48,61,1.09,CL,1738698745
248,georgetown,5.4112,100.3354,26.96,77,20,3.6,MY,1738698482
249,broken hill,-31.95,141.4333,22.9,44,2,3.07,AU,1738698748
250,puerto ayora,-0.7393,-90.3518,26.97,89,57,2.68,EC,1738698749
251,panambi,-28.2925,-53.5017,38.49,21,0,3.52,BR,1738698750
252,dryden,49.7833,-92.7503,-18.84,60,0,4.12,CA,1738698751
253,twon-brass,4.3151,6.2418,28.2,78,48,5.52,NG,1738698752
254,kutum,14.2,24.6667,20.17,19,0,4.11,SD,1738698754
255,hammerfest,70.6634,23.6821,-10.75,67,100,9.77,NO,1738698755
256,tahe,52.3333,124.7333,-35.4,100,33,0.85,CN,1738698756
257,nar'yan-mar,67.6713,53.087,-7.49,95,100,5.42,RU,1738698757
258,salem,11.65,78.1667,20.76,61,66,2.37,IN,1738698312
259,dourados,-22.2211,-54.8056,30.94,49,100,2.37,BR,1738698158
260,petropavl,54.8753,69.1628,-14.25,98,86,2.38,KZ,1738698761
261,pak phanang,8.3511,100.202,24.73,80,39,2.41,TH,1738698762
262,harper,4.375,-7.7169,26.85,81,17,3.19,LR,1738698763
263,margate,51.3813,1.3862,8.82,84,99,0.45,GB,1738698764
264,armacao de buzios,-22.7469,-41.8817,32.09,83,100,9.0,BR,1738698486
265,vilyuysk,63.7553,121.6247,-31.04,95,100,3.12,RU,1738698766
266,aykhal,66.0,111.5,-39.98,99,99,2.63,RU,1738698768
267,keflavik,64.0049,-22.5624,0.24,59,75,14.4,IS,1738698769
268,aasiaat,68.7098,-52.8699,-22.16,95,100,3.75,GL,1738698770
269,tobruk,32.0836,23.9764,15.77,60,0,6.92,LY,1738698772
270,phan rang-thap cham,11.5667,108.9833,18.79,85,9,2.72,VN,1738698774
271,kayangel,8.0823,134.7173,26.36,86,100,7.8,PW,1738698776
272,altay,47.8667,88.1167,-15.33,57,0,4.41,CN,1738698777
273,goynuk,40.4003,30.7883,-2.07,86,65,2.26,TR,1738698778
274,zhangye,38.9342,100.4517,-11.16,65,78,2.11,CN,1738698779
275,kerman,30.2832,57.0788,-0.08,34,0,2.06,IR,1738698781
276,la passe,45.5549,-0.8967,7.47,71,0,0.82,FR,1738698782
277,shahr-e babak,30.1165,55.1186,4.41,40,0,3.28,IR,1738698783
278,ardabil,38.2498,48.2933,-2.25,59,0,4.12,IR,1738698784
279,nassau,40.7507,-73.5829,7.13,39,0,8.75,US,1738698633
280,iwon-up,40.3231,128.6553,-13.87,65,1,4.5,KP,1738698786
281,awjilah,29.1081,21.2869,14.13,54,66,4.78,LY,1738698788
282,yemetsk,63.4721,41.7941,-17.18,99,84,0.95,RU,1738698789
283,coyhaique,-45.5752,-72.0662,16.42,43,1,4.26,CL,1738698790
284,chimoio,-19.1164,33.4833,19.05,97,100,0.63,MZ,1738698792
285,stephenville,32.2207,-98.2023,15.07,55,100,3.09,US,1738698794
286,antsiranana,-12.2787,49.2917,24.69,91,100,4.38,MG,1738698795
287,riosucio,5.4216,-75.7032,23.0,72,89,0.8,CO,1738698796
288,susuman,62.7833,148.1667,-45.93,98,56,0.46,RU,1738698797
289,la gi,10.6667,107.7833,21.43,80,7,3.54,VN,1738698798
290,rickmansworth,51.6393,-0.473,9.34,91,75,4.63,GB,1738698799
291,trevelin,-43.0858,-71.4639,21.89,35,8,3.12,AR,1738698801
292,sungai raya,0.7,108.9,23.96,94,99,3.21,ID,1738698802
293,djougou,9.7085,1.666,28.56,13,9,2.44,BJ,1738698804
294,boyolangu,-8.1181,111.8935,24.29,89,100,2.93,ID,1738698805
295,peace river,56.2501,-117.286,-31.83,75,0,2.06,CA,1738698806
296,kirakira,-10.4544,161.9205,27.7,77,99,4.63,SB,1738698807
297,waddan,29.1614,16.139,14.0,39,100,3.63,LY,1738698808
298,kaiapoi,-43.3783,172.6401,14.7,87,87,1.03,NZ,1738698810
299,madimba,-10.4,40.3333,26.39,84,100,6.35,TZ,1738698811
300,san mariano,7.5,126.0,21.34,95,100,1.02,PH,1738698812
301,santa maria,-29.6842,-53.8069,37.61,34,40,1.54,BR,1738698284
302,sabya,17.1495,42.6254,25.79,64,61,3.13,SA,1738698814
303,nova vicosa,-17.8919,-39.3719,28.0,68,0,5.53,BR,1738698815
304,vila velha,-20.3297,-40.2925,29.97,58,20,7.72,BR,1738698548
305,necochea,-38.5473,-58.7368,21.7,40,1,6.59,AR,1738698818
306,port alfred,-33.5906,26.891,22.88,95,56,1.34,ZA,1738698819
307,mugia,43.1041,-9.2179,12.73,84,100,2.31,ES,1738698820
308,urzhar,47.093,81.6294,-12.17,69,1,3.68,KZ,1738698821
309,mindelo,16.8901,-24.9804,21.75,56,20,13.38,CV,1738698822
310,satkania,22.0796,92.0572,13.66,61,13,1.9,BD,1738698824
311,ubari,26.5921,12.7805,15.61,36,91,3.33,LY,1738698825
312,utrik,11.2278,169.8474,26.5,81,100,9.71,MH,1738698826
313,esneux,50.536,5.5678,2.64,75,0,4.63,BE,1738698827
314,vernon,50.2581,-119.2691,-10.14,61,96,1.54,CA,1738698828
315,ta`u,-14.2336,-169.5144,28.16,69,16,3.26,AS,1738698830
316,chinde,26.8212,87.7095,15.16,64,5,2.74,NP,1738698831
317,banyuls de la marenda,42.4837,3.129,9.54,60,2,1.37,FR,1738698832
318,bogotol,56.2078,89.5342,-22.91,100,95,2.03,RU,1738698833
319,alofi,-19.0595,-169.9187,27.94,83,20,2.57,NU,1738698834
320,dunedin,-45.8742,170.5036,14.33,82,15,0.89,NZ,1738698835
321,minas de marcona,-15.2119,-75.1103,22.39,64,56,4.84,PE,1738698837
322,lamu,-2.2717,40.902,24.4,88,74,6.93,KE,1738698838
323,tolanaro,-25.0319,46.9987,26.04,78,75,6.17,MG,1738698839
324,kalevala,65.2,31.1667,-28.35,100,100,1.46,RU,1738698840
325,tromso,69.6496,18.957,-3.99,74,75,11.32,NO,1738698788
326,piracanjuba,-17.3028,-49.0167,23.67,86,100,0.56,BR,1738698565
327,acapulco de juarez,16.8634,-99.8901,28.9,70,0,3.6,MX,1738698844
328,petropavlovsk-kamchatsky,53.0452,158.6483,-8.67,73,20,2.0,RU,1738698845
329,thief river falls,48.1191,-96.1812,-17.04,66,75,3.6,US,1738698846
330,dakhla,23.6848,-15.958,17.01,77,0,11.32,EH,1738698847
331,ambodifotatra,-16.9833,49.85,27.17,74,100,2.74,MG,1738698849
332,new norfolk,-42.7826,147.0587,11.62,96,44,0.76,AU,1738698850
333,ilhabela,-23.7781,-45.3581,27.56,80,100,1.0,BR,1738698565
334,dudinka,69.4058,86.1778,-28.29,93,91,1.39,RU,1738698852
335,pemangkat,1.1667,108.9667,24.52,91,100,4.36,ID,1738698853
336,sur,22.5667,59.5289,19.45,57,0,1.54,OM,1738698856
337,tsetserleg,47.475,101.4542,-16.91,50,94,7.72,MN,1738698857
338,salinopolis,-0.6136,-47.3561,26.54,85,90,4.27,BR,1738698728
339,tura,25.5198,90.2201,14.82,67,100,1.19,IN,1738698599
340,tahlequah,35.9154,-94.97,10.12,76,100,1.54,US,1738698860
341,iskateley,67.6803,53.1512,-7.51,95,100,5.45,RU,1738698862
342,dawei,14.0833,98.2,21.77,91,1,1.33,MM,1738698863
343,uray,60.1247,64.7758,-5.31,97,99,1.35,RU,1738698864
344,bardai,11.65,7.2333,23.17,11,2,4.45,NG,1738698865
345,salinas,36.6777,-121.6555,18.29,71,40,11.83,US,1738698695
346,arendal,58.4615,8.7725,5.14,92,100,6.5,NO,1738698867
347,prineville,44.2999,-120.8345,-0.84,91,100,1.48,US,1738698869
348,sao joao da barra,-21.6403,-41.0511,30.05,86,2,8.64,BR,1738698874
349,huittinen,61.1833,22.7,-3.33,92,100,5.62,FI,1738698875
350,sarupathar,26.1984,93.8094,15.3,70,1,1.09,IN,1738698876
351,la libertad,-2.2333,-80.9,30.81,66,20,3.6,EC,1738698808
352,chui,-33.6971,-53.4616,29.78,62,62,5.86,UY,1738698878
353,porto-vecchio,41.591,9.2795,4.81,93,0,2.06,FR,1738698879
354,guerrero negro,27.9769,-114.0611,20.82,54,37,3.85,MX,1738698882
355,berezovyy,51.6667,135.7,-17.65,97,100,2.92,RU,1738698883
356,hancheng,32.5186,112.3522,4.6,55,5,1.51,CN,1738698884
357,lospalos,-8.5186,127.0025,22.85,91,100,0.29,TL,1738698885
358,grand falls-windsor,48.9332,-55.6649,-1.94,70,21,4.02,CA,1738698651
359,akureyri,65.6835,-18.0878,-1.04,74,75,6.69,IS,1738698890
360,usakos,-22.0,15.6,24.88,65,100,3.26,NA,1738698891
361,queenstown,-31.8976,26.8753,26.03,43,94,1.46,ZA,1738698893
362,dongola,19.1667,30.4833,23.4,16,0,6.09,SD,1738698894
363,san jose de las matas,19.3391,-70.9382,24.72,59,34,5.22,DO,1738698895
364,tahoua,14.8888,5.2692,26.94,12,0,4.22,NE,1738698896
365,east london,-33.0153,27.9116,25.47,89,69,2.17,ZA,1738698897
366,pinckneyville,38.0803,-89.382,8.19,54,95,4.6,US,1738698898
367,castillos,-34.1667,-53.8333,27.03,70,100,4.84,UY,1738698900
368,assab,13.0092,42.7394,23.84,68,4,12.31,ER,1738698901
369,tual,-5.6667,132.75,26.89,83,100,7.7,ID,1738698902
370,chapada dos guimaraes,-15.4606,-55.7497,25.83,70,89,2.41,BR,1738698903
371,callao,-12.0667,-77.15,25.16,69,0,5.14,PE,1738698827
372,xinyuan,37.3,99.0,-13.77,40,80,3.1,CN,1738698906
373,basco,20.4487,121.9702,19.25,76,100,14.31,PH,1738698908
374,lerwick,60.1545,-1.1494,6.61,78,100,6.52,GB,1738698909
375,praia,14.9215,-23.5087,21.3,64,75,7.72,CV,1738698871
376,jieshi,22.8134,115.8257,12.32,77,7,7.51,CN,1738698912
377,ajdabiya,30.7554,20.2263,14.91,58,34,4.16,LY,1738698913
378,hasaki,35.7333,140.8333,4.34,49,1,4.7,JP,1738698914
379,fort mcmurray,56.7268,-111.381,-22.23,64,100,7.2,CA,1738698915
380,kiruna,67.8557,20.2251,-14.49,78,100,11.32,SE,1738698916
381,tadine,-21.55,167.8833,25.28,84,82,4.22,NC,1738698918
382,kenai,60.5544,-151.2583,-14.97,92,0,2.57,US,1738698919
383,pahrump,36.2083,-115.9839,21.58,26,0,4.92,US,1738698920
384,taroa,8.7058,171.2275,26.68,85,96,11.04,MH,1738698921
385,pangody,65.85,74.4859,-19.91,99,91,3.68,RU,1738698922
386,alaghsas,17.0187,8.0168,24.66,12,3,5.34,NE,1738698924
387,tamanrasset,22.785,5.5228,16.95,15,0,1.54,DZ,1738698925
388,santa rosalia,27.3167,-112.2833,23.71,19,12,2.14,MX,1738698926
389,fisterra,42.9049,-9.2629,12.62,81,100,3.29,ES,1738698927
390,kone,-21.0595,164.8658,24.8,94,100,1.32,NC,1738698928
391,ete,7.05,7.45,27.47,17,35,0.45,NG,1738698929
392,porto novo,6.4965,2.6036,29.9,66,43,4.14,BJ,1738698931
393,levuka,50.1834,-105.4011,-22.16,93,100,4.07,CA,1738698932
394,kolonia town,6.964,158.206,27.22,83,100,3.09,FM,1738698934
395,torghay,49.6339,63.4981,-9.33,82,100,4.83,KZ,1738698937
396,granada,37.25,-3.25,4.61,76,3,0.47,ES,1738698938
397,ouesso,1.6136,16.0517,28.61,44,100,1.09,CG,1738698939
398,ondjiva,-17.0667,15.7333,20.19,83,100,3.47,AO,1738698940
399,swakopmund,-22.6833,14.5333,18.62,90,100,3.72,NA,1738698840
400,kuqa,41.7278,82.9364,-8.08,77,100,1.1,CN,1738698942
401,qui nhon,13.7667,109.2333,18.56,92,73,3.3,VN,1738698942
402,pagar alam,-4.0167,103.2667,19.52,96,100,1.66,ID,1738698945
403,sungai besar,3.6746,100.9867,23.44,93,100,2.19,MY,1738698946
404,mejit,10.2753,170.8646,26.44,85,100,10.47,MH,1738698947
405,brisas de zicatela,15.8369,-97.0419,29.29,57,4,3.59,MX,1738698948
406,sisimiut,66.9395,-53.6735,-19.77,95,100,2.16,GL,1738698917
407,songea,-10.6833,35.65,19.02,96,100,0.93,TZ,1738698951
408,buka,40.8108,69.1986,3.97,50,83,0.58,UZ,1738698952
409,khadan khak,30.7477,67.7085,0.8,58,0,2.87,PK,1738698953
410,feijo,-8.1642,-70.3536,24.25,91,100,1.52,BR,1738698954
411,sao joaquim,-28.2939,-49.9317,20.48,86,90,2.03,BR,1738698955
412,am timan,11.0297,20.2827,29.12,15,11,0.73,TD,1738698958
413,st. john's,47.5649,-52.7093,1.1,90,75,11.32,CA,1738698959
414,brainerd,46.358,-94.2008,-15.56,62,75,2.57,US,1738698842
415,adh dhibiyah,24.5014,45.9686,15.61,19,3,5.09,SA,1738698961
416,mansalay,12.5167,121.4,20.94,92,84,3.51,PH,1738698962
417,mount gambier,-37.8333,140.7667,13.35,64,26,4.96,AU,1738698964
418,sorong,-0.8833,131.25,26.61,82,100,1.92,ID,1738698965
419,chernyshevskiy,63.0128,112.4714,-35.95,91,55,3.77,RU,1738698966
420,hoi an,15.8794,108.335,17.98,90,100,2.09,VN,1738698967
421,maragogi,-9.0122,-35.2225,27.39,68,63,5.41,BR,1738698968
422,atar,20.5169,-13.0499,19.94,15,0,4.08,MR,1738698969
423,island harbour,50.724,-1.2758,9.4,91,100,1.34,GB,1738698971
424,astrakhan,46.3497,48.0408,-1.07,100,75,6.0,RU,1738698972
425,khabarovsk,48.4808,135.0928,-14.11,85,75,6.0,RU,1738698973
426,pauini,-7.7136,-66.9764,29.08,68,100,0.65,BR,1738698974
427,acara,-1.9608,-48.1967,25.29,90,98,0.71,BR,1738698975
428,kendari,-3.945,122.4989,24.01,93,100,0.97,ID,1738698976
429,palmer,42.1584,-72.3287,3.07,50,75,11.83,US,1738698978
430,puente alto,-33.6167,-70.5833,32.12,23,0,4.63,CL,1738698980
431,pangkalanbuun,-2.6833,111.6167,23.71,95,100,0.96,ID,1738698981
432,menongue,-14.6585,17.691,18.61,92,96,1.0,AO,1738698982
433,mwinilunga,-11.7358,24.4293,17.47,96,97,0.87,ZM,1738698983
434,grants,35.1473,-107.8514,21.13,8,0,6.17,US,1738698985
435,wellawaya,6.7318,81.1018,20.31,77,21,2.89,LK,1738698986
436,bhudgaon,16.9,74.6,21.35,38,85,1.08,IN,1738698987
437,tambura,5.6,27.4667,26.32,29,51,1.02,SS,1738698988
438,vidyayevo,69.3191,32.8049,-20.05,90,100,5.15,RU,1738698989
439,mokhsogollokh,61.4681,128.9203,-39.72,100,76,1.11,RU,1738698991
440,nanao,37.05,136.9667,-0.25,67,100,7.31,JP,1738698992
441,dunay,42.8803,132.3375,-13.64,75,100,15.56,RU,1738698942
442,rio grande,-32.035,-52.0986,27.93,75,4,6.69,BR,1738698864
443,harstad,68.799,16.5293,-3.25,85,100,8.49,NO,1738698995
444,yermentau,51.6214,73.1069,-12.96,98,89,3.97,KZ,1738698997
445,xique xique,-10.8217,-42.7311,32.38,39,1,1.02,BR,1738698998
446,gujar khan,33.2558,73.3026,7.06,56,0,0.97,PK,1738698999
447,sant'antioco,39.0664,8.4522,11.47,85,70,1.74,IT,1738699000
448,mabaruma,8.2,-59.7833,27.95,66,14,3.26,GY,1738699001
449,norrtalje,59.758,18.705,1.12,87,94,3.69,SE,1738699002
450,mariinskiy posad,56.115,47.718,-0.48,94,100,5.03,RU,1738699004
451,qinnan,33.2531,119.9133,-1.76,58,76,2.26,CN,1738699005
452,lugu,23.7464,120.7525,11.7,88,94,1.28,TW,1738699006
453,cacak,43.8914,20.3497,-2.22,70,6,1.02,RS,1738699007
454,la'ie,21.6477,-157.9253,23.98,68,28,1.79,US,1738699008
455,shubarkuduk,49.1447,56.4872,-8.07,79,100,5.13,KZ,1738699010
456,kiama,-34.6833,150.8667,22.54,89,11,4.03,AU,1738699011
457,palangkaraya,-2.2,113.8333,23.73,94,100,0.78,ID,1738699012
458,meadow lake,34.8014,-106.5436,18.24,23,100,4.66,US,1738699013
459,veraval,20.9,70.3667,17.45,68,4,6.3,IN,1738699014
460,bayanhongor,46.7167,100.1167,-34.03,85,21,1.23,MN,1738699015
461,usinsk,65.9939,57.5281,-8.71,95,100,5.88,RU,1738699016
462,ocean shores,46.9737,-124.1563,2.23,92,100,3.13,US,1738699018
463,juneau,58.3019,-134.4197,-3.1,86,0,0.0,US,1738698857
464,madalena,41.2162,-8.3345,10.86,75,45,1.21,PT,1738699020
465,rabaul,-4.1967,152.1721,28.1,73,77,3.46,PG,1738699021
466,labuan,5.2767,115.2417,25.2,94,20,0.0,MY,1738699022
467,vilhena,-12.7406,-60.1458,24.12,94,75,6.69,BR,1738699024
468,ambon,-3.6954,128.1814,28.46,100,100,3.33,ID,1738699025
469,edgewater,28.9889,-80.9023,27.05,80,74,0.45,US,1738699026
470,luena,-11.7833,19.9167,18.21,98,100,1.73,AO,1738699027
471,praya,14.9215,-23.5087,21.3,64,75,7.72,CV,1738699028
472,huayin,34.5675,110.0921,0.35,50,6,3.15,CN,1738699029
473,port isabel,26.0734,-97.2086,24.02,85,40,5.14,US,1738699031
474,tofol,5.3248,163.0078,27.48,82,100,11.77,FM,1738699032
475,nicoya,10.1483,-85.452,33.96,37,3,5.07,CR,1738698741
476,kyren,51.6828,102.1408,-12.84,79,100,2.01,RU,1738699034
477,shiqian,27.5225,108.2281,7.04,71,100,1.01,CN,1738699035
478,minzhu,43.7286,127.3447,-23.17,98,98,1.16,CN,1738699036
479,east grand forks,47.93,-97.0245,-15.51,68,75,0.89,US,1738698900
480,ola,59.5833,151.2833,-28.16,87,13,3.27,RU,1738699039
481,gaiman,-43.2897,-65.4929,22.11,14,0,0.94,AR,1738699040
482,byron bay,-28.65,153.6167,22.95,82,100,1.44,AU,1738699041
483,qujing,25.4833,103.7833,1.56,96,37,1.43,CN,1738699042
484,coquimbo,-29.9533,-71.3436,20.85,64,20,6.69,CL,1738698929
485,bol'shoye boldino,55.0059,45.3142,-1.89,96,100,6.0,RU,1738699045
486,mossel bay,-34.1831,22.146,21.4,75,7,2.67,ZA,1738699046
487,santander,43.4647,-3.8044,8.62,81,0,2.57,ES,1738699016
488,tlacotalpan,18.6167,-95.6667,27.02,70,0,3.47,MX,1738699048
489,yinchuan,38.4681,106.2731,-10.29,58,0,2.14,CN,1738699049
490,yuzhno-kurilsk,44.0306,145.8556,-3.13,85,35,6.58,RU,1738699051
491,safotu,-13.4513,-172.4018,28.04,75,35,2.93,WS,1738699052
492,tsiombe,-25.3,45.4833,24.63,72,100,7.06,MG,1738699053
493,madhogarh,26.276,79.1869,16.71,68,1,1.26,IN,1738699054
494,nezhinka,51.7676,55.3694,-8.91,79,0,3.0,RU,1738699055
495,upington,-28.4478,21.2561,27.79,45,100,6.41,ZA,1738699059
496,jaru,-10.4389,-62.4664,28.74,81,100,2.02,BR,1738698998
497,lagoa,39.05,-27.9833,13.8,88,100,8.43,PT,1738699064
498,san antonio de pale,-1.4014,5.6325,27.07,82,35,3.63,GQ,1738699065
499,lazaro cardenas,17.9583,-102.2,28.85,58,0,4.39,MX,1738698821
500,xuddur,4.1213,43.8894,25.44,43,67,5.12,SO,1738699067
501,mukalla,14.5425,49.1242,20.08,52,0,1.79,YE,1738699068
502,cidreira,-30.1811,-50.2056,27.29,80,0,4.91,BR,1738699070
503,el granada,37.5027,-122.4694,15.1,94,75,13.89,US,1738699071
504,lautoka,-17.6167,177.4667,23.92,94,75,0.0,FJ,1738699072
505,belokurikha,51.9959,84.9896,-13.61,91,5,2.17,RU,1738699073
506,fale old settlement,-9.3852,-171.2468,28.6,68,32,6.39,TK,1738699074
507,inverloch,-38.6333,145.7167,14.65,74,49,1.64,AU,1738699076
508,tuy hoa,13.0833,109.3,18.71,95,77,1.54,VN,1738699077
509,qaisumah,28.3112,46.1273,14.98,25,0,4.12,SA,1738699078
510,kissidougou,9.1848,-10.0999,26.37,21,73,2.19,GN,1738699079
511,la oliva,28.6105,-13.9291,16.66,55,75,9.26,ES,1738699081
512,illela,13.7292,5.2975,26.65,10,0,4.06,NG,1738699082
513,karwar,14.8,74.1333,23.65,70,71,2.51,IN,1738699083
514,talara,-4.5772,-81.2719,32.42,40,0,5.66,PE,1738699084
515,bonyhad,46.2992,18.5302,1.08,69,5,0.64,HU,1738699085
516,milton,34.1322,-84.3007,24.61,53,4,3.76,US,1738698861
517,launceston,-41.45,147.1667,11.8,71,100,6.69,AU,1738699088
518,kapuskasing,49.4169,-82.4331,-16.95,66,100,5.14,CA,1738699081
519,ust-tsilma,65.441,52.1498,-7.72,95,100,3.54,RU,1738699090
520,urangan,-25.3,152.9,24.96,82,99,5.1,AU,1738699092
521,likasi,-10.9814,26.7333,16.75,98,95,0.24,CD,1738699093
522,ban nam yuen,9.8769,98.8659,20.81,100,10,0.13,TH,1738699095
523,qulsary,46.9531,54.0198,-5.03,83,57,5.51,KZ,1738699096
524,salekhard,66.53,66.6019,-28.12,100,90,1.59,RU,1738698883
525,pachino,36.7186,15.0907,12.38,79,0,2.37,IT,1738699098
526,bikenibeu village,1.3673,173.1241,26.98,83,75,6.69,KI,1738699099
527,amos,48.5669,-78.1162,-16.09,88,100,4.65,CA,1738699101
528,ubinskoye,55.3068,79.6802,-4.26,97,100,3.03,RU,1738699102
529,malmesbury,-33.4608,18.7271,16.45,89,4,2.43,ZA,1738699103
530,santana,-0.0583,-51.1817,31.1,66,20,2.57,BR,1738699104
531,arraias,-12.9288,-46.9437,26.35,70,100,1.51,BR,1738699105
532,carbonear,47.7332,-53.2148,0.75,87,99,9.79,CA,1738699107
533,tazovsky,67.4667,78.7,-28.64,100,100,1.68,RU,1738699109
534,prien,30.1819,-93.2738,23.9,85,75,2.57,US,1738699110
535,miragoane,18.4423,-73.0876,26.19,71,4,2.62,HT,1738699111
536,smithers,54.7804,-127.1743,-21.82,77,0,1.03,CA,1738699112
537,flin flon,54.7682,-101.865,-22.09,71,0,5.66,CA,1738699113
538,aioun,16.6614,-9.6149,21.52,10,92,4.7,MR,1738699115
539,portland,45.5234,-122.6762,5.45,81,75,3.09,US,1738698758
540,smolensk,55.0,33.0,-3.76,79,82,2.32,RU,1738699117
541,igarka,67.4667,86.5833,-21.17,85,97,4.69,RU,1738699118
542,birobidzhan,48.8,132.95,-15.63,96,100,2.24,RU,1738699119
543,tindouf,27.6711,-8.1474,19.25,19,0,2.06,DZ,1738699120
544,loukhi,66.0764,33.0381,-25.77,100,100,1.59,RU,1738699122
545,imst,47.2684,10.6698,-12.56,65,1,2.55,AT,1738699123
546,bulancak,40.9372,38.2291,4.43,85,100,1.92,TR,1738699124
547,sos'va,59.1766,61.8558,-15.55,98,100,1.59,RU,1738699125
548,kapa'a,22.0752,-159.319,22.18,76,20,4.63,US,1738699126
549,al quwayrah,29.8004,35.3116,8.84,54,92,1.48,JO,1738699127
550,bairnsdale,-37.8333,147.6167,16.7,92,99,1.65,AU,1738699129
551,polavaram,17.2467,81.6439,21.16,64,56,0.75,IN,1738699130
552,kudat,6.8837,116.8477,25.16,100,100,0.0,MY,1738699131
553,shahrud,36.4182,54.9763,1.74,44,0,0.73,IR,1738699132
554,puerto san jose,13.9256,-90.8244,31.03,55,0,5.14,GT,1738699133
555,kiri buru,22.0833,85.35,19.4,48,71,0.23,IN,1738699134
556,el calafate,-50.3408,-72.2768,12.78,44,81,5.77,AR,1738698876
557,bosaso,11.2842,49.1816,21.84,67,7,3.12,SO,1738699137
558,kilindoni,-7.9139,39.6668,27.15,78,100,7.76,TZ,1738699138
559,pontes e lacerda,-15.2261,-59.3353,29.35,66,100,1.41,BR,1738699101
560,kharp,66.8014,65.8081,-23.61,99,71,1.21,RU,1738699140
561,chibougamau,49.9168,-74.3659,-18.21,65,100,5.14,CA,1738699141
562,channapatna,12.65,77.2167,19.05,50,72,2.54,IN,1738699142
563,fernley,39.608,-119.2518,12.32,46,21,7.47,US,1738699144
564,dashiqiao,40.6373,122.5025,-17.88,85,37,0.35,CN,1738699145
565,praia da vitoria,38.7333,-27.0667,14.14,94,75,7.16,PT,1738699146
566,gelemso,8.8167,40.5167,15.96,30,7,1.32,ET,1738699147
567,mil'kovo,55.6078,37.7956,0.19,63,86,2.93,RU,1738699148
568,north bend,43.4065,-124.2243,6.26,81,20,1.54,US,1738699150
569,howard springs,-12.497,131.047,24.95,90,100,5.23,AU,1738699151
570,opuwo,-18.0607,13.84,19.93,91,98,4.46,NA,1738699152
571,crane,31.3974,-102.3501,26.21,35,12,8.5,US,1738699153
572,bridgewater,44.3835,-64.5155,-0.18,68,60,6.17,CA,1738698999
573,jayapura,-2.5333,140.7,23.66,94,100,1.76,ID,1738699155
574,upper grand lagoon,30.1633,-85.7408,23.01,71,40,2.68,US,1738699157
575,sirte,31.2089,16.5887,14.85,60,9,2.12,LY,1738699158
